[
  {
    "Name": "Walgreens",
    "Latitude": 42.7676271,
    "Longitude": -71.2172174,
    "Phone": "+16038933667",
    "Address": "Walgreens, 167, South Broadway, Salem, Rockingham County, New Hampshire, 03079, United States"
  },
  {
    "Name": "Rite Aid",
    "Latitude": 42.9655266,
    "Longitude": -71.4802642,
    "Phone": "+16036235773",
    "Address": "Rite Aid, 1, South River Road, Manchester, Hillsborough County, New Hampshire, 03110, United States"
  },
  {
    "Name": "Londonderry Compounding Pharmacy",
    "Latitude": 42.8688422,
    "Longitude": -71.3493224,
    "Phone": null,
    "Address": "Londonderry Compounding Pharmacy, Commons Drive, Londonderry Commons, Londonderry, Rockingham County, New Hampshire, 03053, United States"
  },
  {
    "Name": "Osco Pharmacy",
    "Latitude": 42.8911945,
    "Longitude": -71.3238598,
    "Phone": "+19784482605",
    "Address": "Osco Pharmacy, Peabody Road Annex, Hood Commons, Derry Village, Derry, Rockingham County, New Hampshire, 03038, United States"
  },
  {
    "Name": "Hannaford Pharmacy",
    "Latitude": 42.8925218,
    "Longitude": -71.1425011,
    "Phone": "+16036264567",
    "Address": "Hannaford Pharmacy, 305, Sandown Road, East Hampstead, Hampstead, Rockingham County, New Hampshire, 03826, United States"
  },
  {
    "Name": "Osco",
    "Latitude": 42.8626178,
    "Longitude": -71.3546851,
    "Phone": "+19784482605",
    "Address": "Osco, Orchard View Drive, Londonderry, Rockingham County, New Hampshire, 03053, United States"
  },
  {
    "Name": "Hollis Pharmacy",
    "Latitude": 42.7433925,
    "Longitude": -71.590217,
    "Phone": "+16034657100",
    "Address": "Hollis Pharmacy, Ash Street, Hollis, Hillsborough County, New Hampshire, 03049, United States"
  },
  {
    "Name": "Rite Aid",
    "Latitude": 43.75346,
    "Longitude": -71.6884115,
    "Phone": "+16035364377",
    "Address": "Rite Aid, Crawford Street, Plymouth, Grafton County, New Hampshire, 03264, United States"
  },
  {
    "Name": "Target Pharmacy",
    "Latitude": 42.9408679,
    "Longitude": -71.4735791,
    "Phone": "+16032630061",
    "Address": "Target Pharmacy, 220, South River Road, Bedford, Hillsborough County, New Hampshire, 03110, United States"
  },
  {
    "Name": "Rite Aid",
    "Latitude": 43.6318739,
    "Longitude": -72.3165363,
    "Phone": "+16032987828",
    "Address": "Rite Aid, 10, Benning Street, Shaw's Powerhouse Plaza, Lebanon, Grafton County, New Hampshire, 03784, United States"
  },
  {
    "Name": "Walgreens",
    "Latitude": 43.1063104,
    "Longitude": -72.4292815,
    "Phone": "+16034451900",
    "Address": "Walgreens, Main Street, Cold River, Walpole, Cheshire County, New Hampshire, 05159, United States"
  },
  {
    "Name": "Rite Aid",
    "Latitude": 44.142541,
    "Longitude": -72.0236352,
    "Phone": "+16034442244",
    "Address": "Rite Aid, 4976, Dartmouth College Highway, Haverhill, Grafton County, New Hampshire, 03785, United States"
  },
  {
    "Name": "Rite Aid",
    "Latitude": 42.8252722,
    "Longitude": -71.6237849,
    "Phone": "+16034244833",
    "Address": "Rite Aid, 586, Nashua Street, East Milford, Milford, Hillsborough County, New Hampshire, 03055, United States"
  },
  {
    "Name": "Rite Aid",
    "Latitude": 43.597749,
    "Longitude": -71.7268336,
    "Phone": "+16035364377",
    "Address": "Rite Aid, Summer Street, Bristol, Grafton County, New Hampshire, 03222, United States"
  },
  {
    "Name": "Roberts Scarlett Pharmacy",
    "Latitude": 43.4236868,
    "Longitude": -72.0009638,
    "Phone": "+16035262002",
    "Address": "Roberts Scarlett Pharmacy, 276, Newport Road, New London, Merrimack County, New Hampshire, 03257, United States"
  },
  {
    "Name": "Walgreens",
    "Latitude": 42.713509,
    "Longitude": -71.4434078,
    "Phone": "+16038912907",
    "Address": "Walgreens, 217, Daniel Webster Highway, Ward 8, Nashua, Hillsborough County, New Hampshire, 03060, United States"
  },
  {
    "Name": "CVS Pharmacy",
    "Latitude": 42.71388,
    "Longitude": -71.4416228,
    "Phone": "+16038884354",
    "Address": "CVS Pharmacy, 214, Daniel Webster Highway, South Nashua, Ward 7, Nashua, Hillsborough County, New Hampshire, 03060, United States"
  },
  {
    "Name": "Costco Pharmacy",
    "Latitude": 42.7026866,
    "Longitude": -71.4419074,
    "Phone": "+16038883640",
    "Address": "Costco Pharmacy, 311, Daniel Webster Highway, South Nashua, Ward 7, Nashua, Hillsborough County, New Hampshire, 03060, United States"
  },
  {
    "Name": "Rite Aid",
    "Latitude": 43.1332857,
    "Longitude": -70.9256085,
    "Phone": "+16038685221",
    "Address": "Rite Aid, Main Street, Durham, Strafford County, New Hampshire, 03824, United States"
  },
  {
    "Name": "CVS Pharmacy",
    "Latitude": 42.8827328,
    "Longitude": -71.3237625,
    "Phone": "+16034342600",
    "Address": "CVS Pharmacy, 48, East Broadway, Derry Village, Derry, Rockingham County, New Hampshire, 03038, United States"
  },
  {
    "Name": "Walmart Pharmacy",
    "Latitude": 42.9015583,
    "Longitude": -71.3256325,
    "Phone": "+16034344898",
    "Address": "Walmart Pharmacy, 11, Ashleigh Drive, Derry Meadows Shoppes, Derry, Rockingham County, New Hampshire, 03038, United States"
  },
  {
    "Name": "Osco",
    "Latitude": 42.7539638,
    "Longitude": -71.4595065,
    "Phone": "+19784482605",
    "Address": "Osco, 300, Main Street, Ward 7, Nashua, Hillsborough County, New Hampshire, 03060, United States"
  },
  {
    "Name": "Walgreens",
    "Latitude": 42.7546915,
    "Longitude": -71.4631785,
    "Phone": "+16038896124",
    "Address": "Walgreens, 283, Main Street, Ward 4, Nashua, Hillsborough County, New Hampshire, 03060, United States"
  },
  {
    "Name": "CVS Pharmacy",
    "Latitude": 42.7026582,
    "Longitude": -71.436867,
    "Phone": "+16038914869",
    "Address": "CVS Pharmacy, 310, Daniel Webster Highway, South Nashua, Ward 7, Nashua, Hillsborough County, New Hampshire, 03060, United States"
  },
  {
    "Name": "Walmart Pharmacy",
    "Latitude": 44.3044958,
    "Longitude": -71.7985441,
    "Phone": "+16037527330",
    "Address": "Walmart Pharmacy, 615, Meadow Street, Littleton, Grafton County, New Hampshire, 03561, United States"
  },
  {
    "Name": "CVS Pharmacy",
    "Latitude": 43.0452916,
    "Longitude": -71.4611802,
    "Phone": "+16036272496",
    "Address": "CVS Pharmacy, 101, Quality Drive, Martin, Hooksett, Merrimack County, New Hampshire, 03106, United States"
  },
  {
    "Name": "CVS Pharmacy",
    "Latitude": 42.7984807,
    "Longitude": -71.5366789,
    "Phone": "+16033240040",
    "Address": "CVS Pharmacy, 600, Amherst Street, Ward 2, Nashua, Hillsborough County, New Hampshire, 03063, United States"
  },
  {
    "Name": "Hannaford",
    "Latitude": 42.7604604,
    "Longitude": -71.49855,
    "Phone": "+16038893700",
    "Address": "Hannaford, 175, Coliseum Avenue, Lincoln Park, Ward 1, Nashua, Hillsborough County, New Hampshire, 03063, United States"
  },
  {
    "Name": "Rite Aid",
    "Latitude": 43.0466293,
    "Longitude": -70.7729253,
    "Phone": "+16034307595",
    "Address": "Rite Aid, Lafayette Road, Portsmouth, Rockingham County, New Hampshire, 03801, United States"
  },
  {
    "Name": "CVS Pharmacy",
    "Latitude": 42.8040924,
    "Longitude": -71.5411328,
    "Phone": "+16038806861",
    "Address": "CVS Pharmacy, 633, Amherst Street, Ward 2, Nashua, Hillsborough County, New Hampshire, 03063, United States"
  },
  {
    "Name": "CVS Pharmacy",
    "Latitude": 42.7575078,
    "Longitude": -71.4634922,
    "Phone": "+16038861786",
    "Address": "CVS Pharmacy, 242, Main Street, Ward 4, Nashua, Hillsborough County, New Hampshire, 03060, United States"
  },
  {
    "Name": "Osco Pharmacy",
    "Latitude": 42.9964991,
    "Longitude": -70.9273245,
    "Phone": "+16032282279",
    "Address": "Osco Pharmacy, Shaws Lane, Stratham Crossing, Stratham, Rockingham County, New Hampshire, 03885, United States"
  },
  {
    "Name": "Walgreens",
    "Latitude": 42.8229508,
    "Longitude": -71.6246313,
    "Phone": "+16036734341",
    "Address": "Walgreens, 571, Nashua Street, East Milford, Milford, Hillsborough County, New Hampshire, 03055, United States"
  },
  {
    "Name": "Hannaford",
    "Latitude": 42.9220814,
    "Longitude": -71.53559,
    "Phone": "+16034722627",
    "Address": "Hannaford, 4, Jenkins Road, Bedford, Hillsborough County, New Hampshire, 03110, United States"
  },
  {
    "Name": "CVS Pharmacy",
    "Latitude": 42.9595219,
    "Longitude": -71.4799233,
    "Phone": "+16036696187",
    "Address": "CVS Pharmacy, 66, South River Road, Bedford, Hillsborough County, New Hampshire, 03110, United States"
  },
  {
    "Name": "Unknown",
    "Latitude": 42.9574321,
    "Longitude": -71.4421506,
    "Phone": "+16038938300",
    "Address": "201, John E. Devine Drive, Manchester, Hillsborough County, New Hampshire, 03103, United States"
  },
  {
    "Name": "CVS Pharmacy",
    "Latitude": 42.9648962,
    "Longitude": -71.4443977,
    "Phone": "+16036684637",
    "Address": "CVS Pharmacy, 788, South Willow Street, Manchester, Hillsborough County, New Hampshire, 03103, United States"
  },
  {
    "Name": "Walgreens",
    "Latitude": 43.301124,
    "Longitude": -70.9718205,
    "Phone": "+16033329360",
    "Address": "Walgreens, 104, South Main Street, Rochester, Strafford County, New Hampshire, 03867, United States"
  },
  {
    "Name": "Walgreens",
    "Latitude": 43.2158756,
    "Longitude": -70.8821063,
    "Phone": "+16037494136",
    "Address": "Walgreens, 1, Glenwood Avenue, Dover, Strafford County, New Hampshire, 03820, United States"
  },
  {
    "Name": "Walgreens",
    "Latitude": 43.1505199,
    "Longitude": -71.00525,
    "Phone": "+16038681783",
    "Address": "Walgreens, 91, Calef Highway, Lee, Strafford County, New Hampshire, 03861, United States"
  },
  {
    "Name": "CVS Pharmacy",
    "Latitude": 43.6995702,
    "Longitude": -72.2905548,
    "Phone": "+16036433178",
    "Address": "CVS Pharmacy, 79, South Main Street, Hanover, Grafton County, New Hampshire, 03755, United States"
  },
  {
    "Name": "Rite Aid",
    "Latitude": 42.8464092,
    "Longitude": -71.3602216,
    "Phone": "+16034378100",
    "Address": "Rite Aid, 123, Nashua Road, Londonderry, Rockingham County, New Hampshire, 03053, United States"
  },
  {
    "Name": "Rite Aid",
    "Latitude": 42.884077,
    "Longitude": -71.3255626,
    "Phone": "+16034379799",
    "Address": "Rite Aid, 20, Crystal Avenue, Derry Village, Derry, Rockingham County, New Hampshire, 03038, United States"
  },
  {
    "Name": "CVS Pharmacy",
    "Latitude": 42.8473527,
    "Longitude": -71.3628264,
    "Phone": "+16034322657",
    "Address": "CVS Pharmacy, 177, Mammoth Road, Londonderry, Rockingham County, New Hampshire, 03053, United States"
  },
  {
    "Name": "Walgreens",
    "Latitude": 44.8925692,
    "Longitude": -71.4980511,
    "Phone": "+16032378388",
    "Address": "Walgreens, Colby Street, Colebrook, Co\u00f6s County, New Hampshire, 03576, United States"
  },
  {
    "Name": "Rite Aid",
    "Latitude": 42.9237395,
    "Longitude": -72.2893019,
    "Phone": "+16033526969",
    "Address": "Rite Aid, Winchester Street, Keene, Cheshire County, New Hampshire, 03435, United States"
  },
  {
    "Name": "CVS Pharmacy",
    "Latitude": 42.875755,
    "Longitude": -71.9604379,
    "Phone": "+16039246397",
    "Address": "CVS Pharmacy, Guard Drive, Peterborough, Hillsborough County, New Hampshire, 03458, United States"
  },
  {
    "Name": "Rite Aid",
    "Latitude": 42.8147849,
    "Longitude": -72.02139,
    "Phone": "+16035326955",
    "Address": "Rite Aid, 14, Peterborough Street, Jaffrey, Cheshire County, New Hampshire, 03452, United States"
  },
  {
    "Name": "Walgreens",
    "Latitude": 43.0521097,
    "Longitude": -71.4393009,
    "Phone": "+16036472846",
    "Address": "Walgreens, 1298, Hooksett Road, Martins Corner, Hooksett, Merrimack County, New Hampshire, 03106, United States"
  },
  {
    "Name": "Rite Aid",
    "Latitude": 43.0514705,
    "Longitude": -71.4370095,
    "Phone": "+16036684705",
    "Address": "Rite Aid, 1285, Hooksett Road, Martins Corner, Hooksett, Merrimack County, New Hampshire, 03106, United States"
  },
  {
    "Name": "CVS Pharmacy",
    "Latitude": 43.0471974,
    "Longitude": -71.4356781,
    "Phone": "+16036272496",
    "Address": "CVS Pharmacy, 10, Whitehall Road, Martins Corner, Hooksett, Merrimack County, New Hampshire, 03106, United States"
  },
  {
    "Name": "Rite Aid",
    "Latitude": 43.008078,
    "Longitude": -71.456341,
    "Phone": "+16036231135",
    "Address": "Rite Aid, 53, Hooksett Road, Manchester, Hillsborough County, New Hampshire, 03104, United States"
  },
  {
    "Name": "Rite Aid",
    "Latitude": 42.9820227,
    "Longitude": -71.4335184,
    "Phone": "+16036451146",
    "Address": "Rite Aid, 270, Mammoth Road, Manchester, Hillsborough County, New Hampshire, 03109, United States"
  },
  {
    "Name": "CVS Pharmacy",
    "Latitude": 43.19478,
    "Longitude": -71.5290178,
    "Phone": "+16032243189",
    "Address": "CVS Pharmacy, 4, Hall Street, Concord, Merrimack County, New Hampshire, 03301, United States"
  },
  {
    "Name": "CVS Pharmacy",
    "Latitude": 43.2169206,
    "Longitude": -71.5068627,
    "Phone": "+16032250793",
    "Address": "CVS Pharmacy, Loudon Road, Concord Heights, Concord, Merrimack County, New Hampshire, 03305, United States"
  },
  {
    "Name": "Rite Aid",
    "Latitude": 42.8380626,
    "Longitude": -71.6497765,
    "Phone": "+16034244833",
    "Address": "Rite Aid, 15, Mont Vernon Street, Milford, Hillsborough County, New Hampshire, 03055, United States"
  },
  {
    "Name": "Rite Aid",
    "Latitude": 42.8750112,
    "Longitude": -71.3142052,
    "Phone": "+16034322505",
    "Address": "Rite Aid, 52, Rockingham Road, Derry, Rockingham County, New Hampshire, 03038, United States"
  },
  {
    "Name": "Walgreens",
    "Latitude": 42.8446723,
    "Longitude": -71.3620475,
    "Phone": "+16034325897",
    "Address": "Walgreens, 131, Nashua Road, Londonderry, Rockingham County, New Hampshire, 03053, United States"
  },
  {
    "Name": "Walgreens",
    "Latitude": 42.8847042,
    "Longitude": -71.4751561,
    "Phone": "+16034239330",
    "Address": "Walgreens, 615, Daniel Webster Highway, Reeds Ferry, Merrimack, Hillsborough County, New Hampshire, 03054, United States"
  },
  {
    "Name": "Walgreens",
    "Latitude": 43.6300315,
    "Longitude": -72.3205001,
    "Phone": "+16032985796",
    "Address": "Walgreens, 3, Airport Road, Lebanon, Grafton County, New Hampshire, 03784, United States"
  },
  {
    "Name": "Dartmouth-Hitchcock Pharmacy",
    "Latitude": 43.6751857,
    "Longitude": -72.2720407,
    "Phone": "+16036533785",
    "Address": "Dartmouth-Hitchcock Pharmacy, 1, Medical Center Drive, Lebanon, Grafton County, New Hampshire, 03756, United States"
  },
  {
    "Name": "CVS Pharmacy",
    "Latitude": 43.7699495,
    "Longitude": -71.7224534,
    "Phone": "+16035364079",
    "Address": "CVS Pharmacy, 345, Highland Street, Plymouth, Grafton County, New Hampshire, 03264, United States"
  },
  {
    "Name": "Walgreens",
    "Latitude": 44.3091189,
    "Longitude": -71.7978151,
    "Phone": "+16034444193",
    "Address": "Walgreens, 274, Dells Road, Littleton, Grafton County, New Hampshire, 03561, United States"
  },
  {
    "Name": "Rite Aid",
    "Latitude": 44.3090035,
    "Longitude": -71.7861197,
    "Phone": "+16034442244",
    "Address": "Rite Aid, 136, Meadow Street, Littleton, Grafton County, New Hampshire, 03561, United States"
  },
  {
    "Name": "Rite Aid",
    "Latitude": 44.0389123,
    "Longitude": -71.6735347,
    "Phone": "+16037455660",
    "Address": "Rite Aid, 50, Main Street, Lincoln, Grafton County, New Hampshire, 03251, United States"
  },
  {
    "Name": "CVS Pharmacy",
    "Latitude": 43.6287963,
    "Longitude": -72.3232514,
    "Phone": "+16032988350",
    "Address": "CVS Pharmacy, 250, Plainfield Road, Lebanon, Grafton County, New Hampshire, 03784, United States"
  },
  {
    "Name": "Rite Aid",
    "Latitude": 44.0236715,
    "Longitude": -71.1164314,
    "Phone": "+16037455660",
    "Address": "Rite Aid, White Mountain Road, Conway, Carroll County, New Hampshire, 03860, United States"
  },
  {
    "Name": "Walgreens",
    "Latitude": 44.0180984,
    "Longitude": -71.1156566,
    "Phone": "+16033568031",
    "Address": "Walgreens, 1498, White Mountain Highway, Conway, Carroll County, New Hampshire, 03860, United States"
  },
  {
    "Name": "Walmart Pharmacy",
    "Latitude": 43.6247124,
    "Longitude": -72.322742,
    "Phone": "+18027731600",
    "Address": "Walmart Pharmacy, 285, Plainfield Road, Lebanon, Grafton County, New Hampshire, 03784, United States"
  },
  {
    "Name": "CVS Pharmacy",
    "Latitude": 43.2185675,
    "Longitude": -71.4846646,
    "Phone": "+16032250793",
    "Address": "CVS Pharmacy, Triangle Park Drive, Concord, Merrimack County, New Hampshire, 03305, United States"
  },
  {
    "Name": "CVS Pharmacy",
    "Latitude": 42.9765573,
    "Longitude": -71.4783557,
    "Phone": "+16036233532",
    "Address": "CVS Pharmacy, 432, South Main Street, Manchester, Hillsborough County, New Hampshire, 03102, United States"
  },
  {
    "Name": "CVS Pharmacy",
    "Latitude": 42.7794701,
    "Longitude": -71.4452665,
    "Phone": "+16038822301",
    "Address": "CVS Pharmacy, 120, Derry Road, Hudson, Hillsborough County, New Hampshire, 03051, United States"
  },
  {
    "Name": "CVS Pharmacy",
    "Latitude": 42.7428668,
    "Longitude": -71.200768,
    "Phone": "+16038985983",
    "Address": "CVS Pharmacy, 512, South Broadway, Salem, Rockingham County, New Hampshire, 03079, United States"
  },
  {
    "Name": "CVS Pharmacy",
    "Latitude": 42.994419,
    "Longitude": -70.9274216,
    "Phone": "+16037723768",
    "Address": "CVS Pharmacy, 1, West Road, Stratham, Rockingham County, New Hampshire, 03885, United States"
  },
  {
    "Name": "CVS Pharmacy",
    "Latitude": 43.2481992,
    "Longitude": -70.8728776,
    "Phone": "+16036926636",
    "Address": "CVS Pharmacy, High Street, Somersworth, Strafford County, New Hampshire, 03878, United States"
  },
  {
    "Name": "CVS Pharmacy",
    "Latitude": 43.2349309,
    "Longitude": -70.8847711,
    "Phone": "+16036926751",
    "Address": "CVS Pharmacy, Deliveries, Central Park, Somersworth, Strafford County, New Hampshire, 03878, United States"
  },
  {
    "Name": "CVS Pharmacy",
    "Latitude": 43.3122351,
    "Longitude": -70.9927807,
    "Phone": "+16033326497",
    "Address": "CVS Pharmacy, North Main Street, Rochester, Strafford County, New Hampshire, 03867, United States"
  },
  {
    "Name": "Rite Aid",
    "Latitude": 43.4462779,
    "Longitude": -71.6217531,
    "Phone": "+16039346862",
    "Address": "Rite Aid, Central Street, Franklin, Merrimack County, New Hampshire, 03235, United States"
  },
  {
    "Name": "Rite Aid",
    "Latitude": 43.5331738,
    "Longitude": -71.4639441,
    "Phone": "+16035281700",
    "Address": "Rite Aid, Strafford Street, Laconia, Belknap County, New Hampshire, 03246, United States"
  },
  {
    "Name": "Rite Aid",
    "Latitude": 43.3710166,
    "Longitude": -72.3402845,
    "Phone": "+16035430153",
    "Address": "Rite Aid, School Street, Lower Village District, Claremont, Sullivan County, New Hampshire, 03743, United States"
  },
  {
    "Name": "Rite Aid",
    "Latitude": 43.2174564,
    "Longitude": -71.5477189,
    "Phone": "+16032236713",
    "Address": "Rite Aid, Bradley Street, Concord, Merrimack County, New Hampshire, 03301, United States"
  },
  {
    "Name": "Rite Aid",
    "Latitude": 43.1937279,
    "Longitude": -71.5403044,
    "Phone": "+16032288400",
    "Address": "Rite Aid, Avon Street, South End, Concord, Merrimack County, New Hampshire, 03301, United States"
  },
  {
    "Name": "Rite Aid",
    "Latitude": 43.1235297,
    "Longitude": -71.4437285,
    "Phone": "+16034855935",
    "Address": "Rite Aid, 46, Allenstown Road, Allenstown, Merrimack County, New Hampshire, 03275, United States"
  },
  {
    "Name": "Rite Aid",
    "Latitude": 42.8590771,
    "Longitude": -71.4916667,
    "Phone": "+16034244833",
    "Address": "Rite Aid, Daniel Webster Highway, Merrimack, Hillsborough County, New Hampshire, 03054, United States"
  },
  {
    "Name": "Rite Aid",
    "Latitude": 42.7733487,
    "Longitude": -71.4851738,
    "Phone": "+16035989450",
    "Address": "Rite Aid, 145, Amherst Street, Ward 2, Nashua, Hillsborough County, New Hampshire, 03064, United States"
  },
  {
    "Name": "Rite Aid",
    "Latitude": 42.7502217,
    "Longitude": -71.4616278,
    "Phone": "+16038869210",
    "Address": "Rite Aid, 331, Main Street, Ward 6, Nashua, Hillsborough County, New Hampshire, 03060, United States"
  },
  {
    "Name": "Rite Aid",
    "Latitude": 42.7541633,
    "Longitude": -71.4305212,
    "Phone": "+16038826335",
    "Address": "Rite Aid, 71, Lowell Road, Hudson, Hillsborough County, New Hampshire, 03051, United States"
  },
  {
    "Name": "Rite Aid",
    "Latitude": 42.7323272,
    "Longitude": -71.4234708,
    "Phone": "+16038826335",
    "Address": "Rite Aid, Wason Road, Hudson, Hillsborough County, New Hampshire, 03051, United States"
  },
  {
    "Name": "Rite Aid",
    "Latitude": 42.7268406,
    "Longitude": -71.3173806,
    "Phone": "+16036357996",
    "Address": "Rite Aid, Atwood Road, Pelham, Hillsborough County, New Hampshire, 03076, United States"
  },
  {
    "Name": "Rite Aid",
    "Latitude": 42.7765788,
    "Longitude": -71.2243916,
    "Phone": "+16038709494",
    "Address": "Rite Aid, South Broadway, Salem, Rockingham County, New Hampshire, 03079, United States"
  },
  {
    "Name": "Rite Aid",
    "Latitude": 42.7816729,
    "Longitude": -71.2259588,
    "Phone": "+16038944429",
    "Address": "Rite Aid, Main Street, Salem Depot, Salem, Rockingham County, New Hampshire, 03079, United States"
  },
  {
    "Name": "Rite Aid",
    "Latitude": 43.0378203,
    "Longitude": -71.1638682,
    "Phone": "+16038950657",
    "Address": "Rite Aid, Rite Aid Way, Raymond, Rockingham County, New Hampshire, 03077, United States"
  },
  {
    "Name": "Rite Aid",
    "Latitude": 42.9744902,
    "Longitude": -70.8359441,
    "Phone": "+16037780553",
    "Address": "Rite Aid, Atlantic Avenue, North Hampton Center, North Hampton, Rockingham County, New Hampshire, 03862, United States"
  },
  {
    "Name": "Rite Aid",
    "Latitude": 43.0685649,
    "Longitude": -70.7721697,
    "Phone": "+16034362214",
    "Address": "Rite Aid, Islington Street, West End, Portsmouth, Rockingham County, New Hampshire, 03801, United States"
  },
  {
    "Name": "Rite Aid",
    "Latitude": 43.0714003,
    "Longitude": -70.938752,
    "Phone": "+16036597852",
    "Address": "Exeter Road, Newmarket, Rockingham County, New Hampshire, 03857, United States"
  },
  {
    "Name": "Walgreens",
    "Latitude": 42.8913352,
    "Longitude": -71.1434411,
    "Phone": "+16033299521",
    "Address": "Walgreens, 288, Sandown Road, East Hampstead, Hampstead, Rockingham County, New Hampshire, 03826, United States"
  },
  {
    "Name": "Walgreens",
    "Latitude": 43.0397007,
    "Longitude": -71.1628411,
    "Phone": "+16038959842",
    "Address": "Walgreens, State Route 27, Raymond, Rockingham County, New Hampshire, 03077, United States"
  },
  {
    "Name": "Walgreens",
    "Latitude": 42.9798895,
    "Longitude": -71.4774551,
    "Phone": "+16036668538",
    "Address": "Walgreens, 227, South Main Street, Manchester, Hillsborough County, New Hampshire, 03102, United States"
  },
  {
    "Name": "Walgreens",
    "Latitude": 42.9818486,
    "Longitude": -71.4473079,
    "Phone": "+16036687924",
    "Address": "Walgreens, 606, Valley Street, Manchester, Hillsborough County, New Hampshire, 03103, United States"
  },
  {
    "Name": "Walgreens",
    "Latitude": 42.7755837,
    "Longitude": -71.4452607,
    "Phone": "+16038800248",
    "Address": "Walgreens, 90, Derry Street, Hudson, Hillsborough County, New Hampshire, 03051, United States"
  },
  {
    "Name": "Walgreens",
    "Latitude": 42.7982121,
    "Longitude": -71.5333544,
    "Phone": "+16035953373",
    "Address": "Walgreens, Cellu Drive, Ward 2, Nashua, Hillsborough County, New Hampshire, 03063, United States"
  },
  {
    "Name": "Walgreens",
    "Latitude": 42.7263178,
    "Longitude": -71.3196953,
    "Phone": "+16036359153",
    "Address": "Walgreens, 151, Bridge Street, Pelham, Hillsborough County, New Hampshire, 03076, United States"
  },
  {
    "Name": "Walgreens",
    "Latitude": 44.4942128,
    "Longitude": -71.5720217,
    "Phone": "+16037882433",
    "Address": "Walgreens, 177, Main Street, Lancaster, Co\u00f6s County, New Hampshire, 03584, United States"
  },
  {
    "Name": "Walgreens",
    "Latitude": 43.5253928,
    "Longitude": -71.4698218,
    "Phone": "+16035245550",
    "Address": "Walgreens, 45, Court Street, Laconia, Belknap County, New Hampshire, 03246, United States"
  },
  {
    "Name": "Walgreens",
    "Latitude": 43.4567675,
    "Longitude": -71.5660803,
    "Phone": "+16032861932",
    "Address": "Walgreens, Laconia Road, Tilton, Belknap County, New Hampshire, 03276, United States"
  },
  {
    "Name": "Walgreens",
    "Latitude": 42.9361723,
    "Longitude": -71.526937,
    "Phone": "+16034725847",
    "Address": "Walgreens, 258, Wallace Road, Bedford, Hillsborough County, New Hampshire, 03110, United States"
  },
  {
    "Name": "Rite Aid",
    "Latitude": 43.3610743,
    "Longitude": -72.1716549,
    "Phone": "+16038635766",
    "Address": "Rite Aid, South Main Street, Newport, Sullivan County, New Hampshire, 03773, United States"
  },
  {
    "Name": "Rite Aid",
    "Latitude": 43.1127398,
    "Longitude": -71.919324,
    "Phone": "+16034645678",
    "Address": "Rite Aid, Antrim Road, Hillsborough, Hillsborough County, New Hampshire, 03244, United States"
  },
  {
    "Name": "CVS Pharmacy",
    "Latitude": 43.4464006,
    "Longitude": -71.6269513,
    "Phone": "+16039340225",
    "Address": "CVS Pharmacy, Central Street, Franklin, Merrimack County, New Hampshire, 03235, United States"
  },
  {
    "Name": "CVS Pharmacy",
    "Latitude": 43.5622121,
    "Longitude": -71.4479405,
    "Phone": "+16035242460",
    "Address": "CVS Pharmacy, Lakeshore Road, Gilford, Belknap County, New Hampshire, 03246, United States"
  },
  {
    "Name": "Walmart Pharmacy",
    "Latitude": 43.3346987,
    "Longitude": -71.0136877,
    "Phone": "+16033325540",
    "Address": "Walmart Pharmacy, 116, Farmington Road, Rochester, Strafford County, New Hampshire, 03867, United States"
  },
  {
    "Name": "Hannaford Pharmacy",
    "Latitude": 43.6362498,
    "Longitude": -72.3175645,
    "Phone": "+16035363233",
    "Address": "Hannaford Pharmacy, 8, Market Street, West Lebanon, Lebanon, Grafton County, New Hampshire, 03784, United States"
  },
  {
    "Name": "CVS Pharmacy",
    "Latitude": 42.9368346,
    "Longitude": -70.8374047,
    "Phone": "+16039262885",
    "Address": "CVS Pharmacy, Lafayette Road, Hampton, Rockingham County, New Hampshire, 03842, United States"
  },
  {
    "Name": "Rite Aid",
    "Latitude": 43.3845723,
    "Longitude": -71.0733817,
    "Phone": "+16037552440",
    "Address": "Rite Aid, NH Route 11, Farmington, Strafford County, New Hampshire, 03835, United States"
  },
  {
    "Name": "CVS Pharmacy",
    "Latitude": 42.981449,
    "Longitude": -71.4324502,
    "Phone": "+16036233995",
    "Address": "CVS Pharmacy, 250, Mammoth Road, Manchester, Hillsborough County, New Hampshire, 03109, United States"
  },
  {
    "Name": "Genoa Healthcare",
    "Latitude": 43.0003519,
    "Longitude": -71.4640845,
    "Phone": null,
    "Address": "Genoa Healthcare, 1555, Elm Street, Manchester, Hillsborough County, New Hampshire, 03101, United States"
  },
  {
    "Name": "Emerson Ecologics",
    "Latitude": 42.9958069,
    "Longitude": -71.4638909,
    "Phone": "+18006544432",
    "Address": "Emerson Ecologics, 1230, Elm Street, Manchester, Hillsborough County, New Hampshire, 03101, United States"
  },
  {
    "Name": "CVS Pharmacy",
    "Latitude": 42.8073548,
    "Longitude": -71.2886973,
    "Phone": "+16034256189",
    "Address": "CVS Pharmacy, 1, Wall Street, Windham, Rockingham County, New Hampshire, 03087, United States"
  },
  {
    "Name": "CVS Pharmacy",
    "Latitude": 43.0701908,
    "Longitude": -70.7712355,
    "Phone": "+16034310234",
    "Address": "CVS Pharmacy, Jewell Court, West End, Portsmouth, Rockingham County, New Hampshire, 03801, United States"
  },
  {
    "Name": "CVS Pharmacy",
    "Latitude": 43.1899038,
    "Longitude": -70.8875381,
    "Phone": "+16037423995",
    "Address": "CVS Pharmacy, Sterling Way, Silver Square, Dover, Strafford County, New Hampshire, 03820, United States"
  },
  {
    "Name": "Rite Aid",
    "Latitude": 42.7679682,
    "Longitude": -72.3898816,
    "Phone": "+16032396000",
    "Address": "Rite Aid, General James Reed Highway, Winchester, Cheshire County, New Hampshire, 03470, United States"
  },
  {
    "Name": "CVS Pharmacy",
    "Latitude": 42.8935316,
    "Longitude": -70.8713101,
    "Phone": "+16034749511",
    "Address": "CVS Pharmacy, Provident Way, Seabrook, Rockingham County, New Hampshire, 03848, United States"
  },
  {
    "Name": "Walgreens",
    "Latitude": 42.8156871,
    "Longitude": -71.1020257,
    "Phone": "+16033780204",
    "Address": "Walgreens, Hazeltine Street, Plastow, Rockingham County, New Hampshire, 03865, United States"
  },
  {
    "Name": "Rite Aid",
    "Latitude": 42.8273927,
    "Longitude": -71.1056634,
    "Phone": "+16033829217",
    "Address": "Rite Aid, Westville Road, Westville, Plastow, Rockingham County, New Hampshire, 03865, United States"
  },
  {
    "Name": "Rite Aid",
    "Latitude": 42.9848485,
    "Longitude": -70.9367801,
    "Phone": "+16037780553",
    "Address": "Rite Aid, Alumni Drive, Jady Hill, Exeter, Rockingham County, New Hampshire, 03833, United States"
  },
  {
    "Name": "Walgreens",
    "Latitude": 42.9838915,
    "Longitude": -70.9404621,
    "Phone": "+16037723551",
    "Address": "Walgreens, 48, Portsmouth Avenue, Jady Hill, Exeter, Rockingham County, New Hampshire, 03833, United States"
  },
  {
    "Name": "Walgreens",
    "Latitude": 43.0312395,
    "Longitude": -71.0741598,
    "Phone": "+16036795839",
    "Address": "Walgreens, 12, Main Street, Epping, Rockingham County, New Hampshire, 03042, United States"
  },
  {
    "Name": "CVS Pharmacy",
    "Latitude": 42.8637248,
    "Longitude": -71.4941629,
    "Phone": "+16034241120",
    "Address": "CVS Pharmacy, 456, Daniel Webster Highway, Merrimack, Hillsborough County, New Hampshire, 03054, United States"
  },
  {
    "Name": "Keene Medical Products",
    "Latitude": 42.7541329,
    "Longitude": -71.4641261,
    "Phone": "+16032240135",
    "Address": "Keene Medical Products, 101, Elm Street, Ward 4, Nashua, Hillsborough County, New Hampshire, 03060, United States"
  },
  {
    "Name": "CVS Pharmacy",
    "Latitude": 44.0161049,
    "Longitude": -71.1132067,
    "Phone": "+16033566916",
    "Address": "CVS Pharmacy, White Mountain Highway, Conway, Carroll County, New Hampshire, 03860, United States"
  },
  {
    "Name": "Wingate's",
    "Latitude": 42.761708,
    "Longitude": -71.4660726,
    "Phone": "+16038829733",
    "Address": "Wingate's, 129, Main Street, Ward 4, Nashua, Hillsborough County, New Hampshire, 03060, United States"
  },
  {
    "Name": "Rite Aid",
    "Latitude": 43.207036,
    "Longitude": -70.8749371,
    "Phone": "+16037425313",
    "Address": "Rite Aid, 679, Central Avenue, Dover, Strafford County, New Hampshire, 03820, United States"
  },
  {
    "Name": "Medicine World",
    "Latitude": 42.7416133,
    "Longitude": -71.4945441,
    "Phone": "+16038819500",
    "Address": "Medicine World, 262, Main Dunstable Road, Ward 6, Nashua, Hillsborough County, New Hampshire, 03062, United States"
  },
  {
    "Name": "Rite Aid",
    "Latitude": 42.9476209,
    "Longitude": -71.0574613,
    "Phone": "+16036423191",
    "Address": "Rite Aid, 53, Church Street, Kingston, Rockingham County, New Hampshire, 03848, United States"
  },
  {
    "Name": "CVS Pharmacy",
    "Latitude": 43.0240944,
    "Longitude": -71.0746512,
    "Phone": "+16036792419",
    "Address": "CVS Pharmacy, Calef Highway, Epping, Rockingham County, New Hampshire, 03042, United States"
  },
  {
    "Name": "Rite Aid",
    "Latitude": 43.0859875,
    "Longitude": -70.7867818,
    "Phone": "+16034311580",
    "Address": "Rite Aid, Granite Street, Osprey Landing, Portsmouth, Rockingham County, New Hampshire, 03801, United States"
  },
  {
    "Name": "Henniker Pharmacy",
    "Latitude": 43.1794681,
    "Longitude": -71.8225807,
    "Phone": "+16034283373",
    "Address": "Henniker Pharmacy, Bridge Street, Henniker, Merrimack County, New Hampshire, 03242, United States"
  },
  {
    "Name": "Rite Aid",
    "Latitude": 42.9386706,
    "Longitude": -70.8392627,
    "Phone": "+16037780553",
    "Address": "Rite Aid, Lafayette Road, Hampton, Rockingham County, New Hampshire, 03842, United States"
  },
  {
    "Name": "Walgreens",
    "Latitude": 42.9454391,
    "Longitude": -70.8344281,
    "Phone": "+16039291258",
    "Address": "Walgreens, Scott Road, Hampton, Rockingham County, New Hampshire, 03842, United States"
  },
  {
    "Name": "Rite Aid",
    "Latitude": 43.3061547,
    "Longitude": -71.3233337,
    "Phone": "+16034358353",
    "Address": "Rite Aid, 41, Carroll Street, Pittsfield, Merrimack County, New Hampshire, 03263, United States"
  },
  {
    "Name": "CVS Pharmacy",
    "Latitude": 43.5310624,
    "Longitude": -71.4652935,
    "Phone": "+16035270173",
    "Address": "CVS Pharmacy, Church Street, Laconia, Belknap County, New Hampshire, 03246, United States"
  },
  {
    "Name": "Unknown",
    "Latitude": 43.3166902,
    "Longitude": -70.9776825,
    "Phone": "+16035281528",
    "Address": "Chestnut Hill Road, Rochester, Strafford County, New Hampshire, 03867, United States"
  },
  {
    "Name": "CVS Pharmacy",
    "Latitude": 43.3730169,
    "Longitude": -72.3355995,
    "Phone": "+16035427742",
    "Address": "CVS Pharmacy, Tremont Street, Lower Village District, Claremont, Sullivan County, New Hampshire, 03743, United States"
  },
  {
    "Name": "Walgreens",
    "Latitude": 43.5854849,
    "Longitude": -71.2115206,
    "Phone": "+16035693348",
    "Address": "Walgreens, 50, South Main Street, Wolfeboro, Carroll County, New Hampshire, 03894, United States"
  },
  {
    "Name": "Rite Aid",
    "Latitude": 43.66184,
    "Longitude": -71.4924518,
    "Phone": "+16032794551",
    "Address": "Rite Aid, Whittier Street, Meredith, Belknap County, New Hampshire, 03253, United States"
  },
  {
    "Name": "Sugar River Pharmacy",
    "Latitude": 43.3580691,
    "Longitude": -72.1757631,
    "Phone": "+16038634111",
    "Address": "Sugar River Pharmacy, John Stark Highway, Newport, Sullivan County, New Hampshire, 03782, United States"
  },
  {
    "Name": "Dartmouth-Hitchcock Pharmacy at Centerra",
    "Latitude": 43.6759499,
    "Longitude": -72.2596908,
    "Phone": "+16036533785",
    "Address": "Dartmouth-Hitchcock Pharmacy at Centerra, 12, Centerra Parkway, Centerra, Lebanon, Grafton County, New Hampshire, 03766, United States"
  },
  {
    "Name": "Rite Aid",
    "Latitude": 42.9924226,
    "Longitude": -71.4738468,
    "Phone": "+16036233290",
    "Address": "Rite Aid, McGregor Street, Manchester, Hillsborough County, New Hampshire, 03101, United States"
  },
  {
    "Name": "Rite Aid",
    "Latitude": 43.0018615,
    "Longitude": -71.4638484,
    "Phone": "+16036234393",
    "Address": "Rite Aid, 1631, Elm Street, Manchester, Hillsborough County, New Hampshire, 03101, United States"
  },
  {
    "Name": "Ken's Pharmacy",
    "Latitude": 42.9749083,
    "Longitude": -71.4633725,
    "Phone": "+16036224300",
    "Address": "Ken's Pharmacy, 36, Elm Street, Manchester, Hillsborough County, New Hampshire, 03101, United States"
  },
  {
    "Name": "Elliot Pharmacy at River's Edge",
    "Latitude": 42.9736693,
    "Longitude": -71.467708,
    "Phone": "+16036635678",
    "Address": "The Elliot at River's Edge, 185, Queen City Avenue, Manchester, Hillsborough County, New Hampshire, 03102, United States"
  }
]